,City,Country,Latitude,Longitude,Temperature (F),Min Temperature (F),Max Temperature (F),Humidity (%),Cloudiness (%),Wind (MPH)
0,touros,BR,-5.2,-35.46,71.6,71.6,71.6,88.0,12.0,5.82
1,lorengau,PG,-2.02,147.27,83.8,83.8,83.8,78.0,87.0,11.99
2,jamestown,US,42.1,-79.24,65.57,64.4,66.0,93.0,90.0,12.75
3,ahipara,NZ,-35.17,173.17,62.55,62.55,62.55,69.0,12.0,7.96
4,inhambane,MZ,-23.86,35.38,67.39,67.39,67.39,70.0,100.0,7.11
5,rikitea,PF,-23.12,-134.97,72.84,72.84,72.84,80.0,100.0,16.15
6,bauchi,NG,10.5,10.0,70.52,70.52,70.52,94.0,99.0,5.14
7,voyvozh,RU,62.89,54.96,50.68,50.68,50.68,98.0,100.0,8.34
8,avarua,CK,-21.21,-159.78,73.4,73.4,73.4,60.0,23.0,3.36
9,mar del plata,AR,-38.0,-57.56,47.8,46.4,48.99,93.0,96.0,4.7
10,kruisfontein,ZA,-34.0,24.73,64.54,64.54,64.54,26.0,0.0,14.0
11,ancud,CL,-41.87,-73.82,46.96,42.01,52.0,87.0,20.0,14.99
12,altamont,US,42.21,-121.74,77.4,75.0,82.4,20.0,1.0,16.11
13,punta arenas,CL,-53.15,-70.92,40.14,39.2,41.0,75.0,100.0,13.87
14,atuona,PF,-9.8,-139.03,78.76,78.76,78.76,76.0,12.0,16.26
15,jacareacanga,BR,-6.22,-57.75,72.84,72.84,72.84,52.0,0.0,0.27
16,new norfolk,AU,-42.78,147.06,46.92,43.0,50.0,69.0,3.0,4.0
17,tasiilaq,GL,65.61,-37.64,48.2,48.2,48.2,66.0,96.0,2.24
18,albany,US,42.6,-73.97,79.36,79.0,80.01,85.0,7.0,1.99
19,port alfred,ZA,-33.59,26.89,69.78,69.78,69.78,24.0,0.0,13.73
20,bethel,US,41.37,-73.41,76.68,73.99,78.8,83.0,40.0,8.05
21,marakkanam,IN,12.2,79.95,84.83,84.83,84.83,67.0,100.0,10.71
22,ushuaia,AR,-54.8,-68.3,39.2,39.2,39.2,60.0,100.0,4.7
23,kodiak,US,57.79,-152.41,64.4,64.4,64.4,63.0,75.0,11.41
24,caravelas,BR,-17.71,-39.25,69.73,69.73,69.73,74.0,0.0,8.93
25,port blair,IN,11.67,92.75,82.72,82.72,82.72,80.0,100.0,27.04
26,mataura,NZ,-46.19,168.86,57.18,57.18,57.18,74.0,99.0,1.54
27,atikokan,CA,48.76,-91.62,53.89,53.89,53.89,69.0,40.0,3.78
28,vrangel,RU,42.73,133.08,69.06,69.06,69.06,96.0,100.0,8.48
29,upernavik,GL,72.79,-56.15,43.23,43.23,43.23,74.0,57.0,4.12
30,yellowknife,CA,62.46,-114.35,78.4,78.01,78.8,57.0,20.0,9.17
31,torbay,CA,47.67,-52.73,55.58,54.0,57.99,100.0,20.0,5.82
32,carnarvon,AU,-24.87,113.63,66.2,66.2,66.2,63.0,21.0,8.05
33,mundra,IN,22.85,69.73,87.13,87.13,87.13,73.0,18.0,10.54
34,alcantara,BR,-2.41,-44.41,78.8,78.8,78.8,88.0,0.0,5.82
35,chulym,RU,55.1,80.96,70.81,70.81,70.81,71.0,0.0,11.54
36,cabo san lucas,MX,22.89,-109.91,82.63,80.6,84.99,61.0,5.0,11.41
37,lavrentiya,RU,65.58,-171.0,48.29,48.29,48.29,66.0,94.0,12.37
38,sokoni,TZ,-6.43,39.55,73.9,71.6,75.2,88.0,75.0,10.29
39,olafsvik,IS,64.89,-23.71,47.21,47.21,47.21,86.0,37.0,11.32
40,esperance,AU,-33.87,121.9,57.2,57.2,57.2,82.0,90.0,19.46
41,qaanaaq,GL,77.48,-69.36,37.33,37.33,37.33,88.0,100.0,2.84
42,beringovskiy,RU,63.05,179.32,48.56,48.56,48.56,71.0,97.0,14.07
43,northam,GB,51.03,-4.22,56.68,55.0,57.99,92.0,56.0,7.0
44,seoul,KR,37.57,126.98,78.78,77.0,80.6,88.0,90.0,11.27
45,severo-kurilsk,RU,50.68,156.12,55.56,55.56,55.56,91.0,100.0,11.48
46,clyde river,CA,70.47,-68.59,50.0,50.0,50.0,93.0,90.0,2.24
47,hamilton,US,39.18,-84.53,70.7,69.01,73.0,88.0,1.0,3.62
48,thompson,CA,55.74,-97.86,73.4,73.4,73.4,46.0,20.0,2.24
49,belaya gora,RU,68.53,146.42,63.68,63.68,63.68,44.0,99.0,10.49
50,loknya,RU,56.83,30.15,52.27,52.27,52.27,81.0,64.0,6.11
51,khatanga,RU,71.97,102.5,66.58,66.58,66.58,63.0,100.0,6.26
52,malinovoye ozero,RU,51.68,79.78,74.71,74.71,74.71,47.0,61.0,16.11
53,morant bay,JM,17.88,-76.41,80.85,79.0,82.4,83.0,20.0,8.05
54,raudeberg,NO,61.99,5.14,51.62,51.01,52.0,93.0,100.0,4.7
55,lebu,CL,-37.62,-73.65,50.81,50.81,50.81,94.0,100.0,7.78
56,dikson,RU,73.51,80.55,54.14,54.14,54.14,76.0,94.0,12.53
57,bose,IT,45.46,8.01,65.64,64.99,66.0,61.0,17.0,3.91
58,sao joao da barra,BR,-21.64,-41.05,65.93,65.93,65.93,70.0,0.0,6.11
59,bredasdorp,ZA,-34.53,20.04,48.2,48.2,48.2,100.0,0.0,3.36
60,lazarev,RU,52.23,141.51,55.89,55.89,55.89,88.0,98.0,11.03
61,cape town,ZA,-33.93,18.42,55.78,54.0,57.99,100.0,75.0,4.7
62,belmonte,BR,-15.86,-38.88,64.4,64.4,64.4,82.0,20.0,8.05
63,nabire,ID,-3.37,135.48,87.15,87.15,87.15,61.0,0.0,5.32
64,andra,RU,62.51,65.89,68.04,68.04,68.04,87.0,100.0,11.63
65,urucara,BR,-2.54,-57.76,77.02,77.02,77.02,57.0,4.0,1.97
66,maryborough,AU,-25.53,152.7,70.0,70.0,70.0,57.0,98.0,5.01
67,bambous virieux,MU,-20.34,57.76,69.42,69.01,69.8,64.0,75.0,17.22
68,port lincoln,AU,-34.73,135.87,57.11,57.11,57.11,60.0,84.0,9.57
69,yining,CN,29.04,114.56,96.33,96.33,96.33,51.0,96.0,1.34
70,bonavista,CA,48.65,-53.11,55.0,55.0,55.0,72.0,0.0,4.23
71,vaini,TO,-21.2,-175.2,77.0,77.0,77.0,83.0,75.0,13.87
72,puerto ayora,EC,-0.74,-90.35,68.0,68.0,68.0,93.0,50.0,1.01
73,saint-philippe,RE,-21.36,55.77,65.75,62.6,68.0,64.0,90.0,11.41
74,ponta do sol,PT,32.67,-17.1,65.66,62.01,69.8,73.0,20.0,13.87
75,hilo,US,19.73,-155.09,74.79,57.0,84.2,58.0,1.0,11.41
76,cedar falls,US,42.53,-92.45,64.0,62.01,66.2,68.0,90.0,8.05
77,kavaratti,IN,10.57,72.64,82.44,82.44,82.44,79.0,94.0,23.98
78,emerald,AU,-23.53,148.17,73.22,73.0,73.4,33.0,40.0,11.41
79,puerto lleras,CO,3.02,-73.4,72.72,72.72,72.72,82.0,18.0,4.18
80,ilulissat,GL,69.22,-51.1,42.8,42.8,42.8,81.0,0.0,2.24
81,mahajanga,MG,-15.72,46.32,68.54,68.54,68.54,57.0,0.0,16.46
82,lamu,KE,-2.27,40.9,74.95,74.95,74.95,82.0,18.0,16.42
83,east london,ZA,-33.02,27.91,73.81,73.81,73.81,20.0,0.0,13.04
84,barrow,US,71.29,-156.79,37.4,37.4,37.4,77.0,90.0,11.41
85,victoria,HK,22.29,114.16,81.68,81.0,82.0,83.0,100.0,10.0
86,busselton,AU,-33.65,115.33,51.62,51.01,52.0,81.0,20.0,5.99
87,kijang,KR,35.24,129.21,84.2,84.2,84.2,74.0,75.0,12.75
88,mazamitla,MX,19.92,-103.03,57.96,57.96,57.96,100.0,100.0,2.98
89,khani,GE,41.96,42.96,66.2,66.2,66.2,93.0,75.0,2.24
90,bilibino,RU,68.05,166.44,54.41,54.41,54.41,52.0,97.0,4.83
91,bluff,NZ,-46.6,168.33,51.6,51.6,51.6,81.0,100.0,4.23
92,ixtapa,MX,20.7,-105.2,86.0,86.0,86.0,79.0,75.0,8.05
93,chokurdakh,RU,70.63,147.92,51.48,51.48,51.48,58.0,100.0,4.9
94,tautira,PF,-17.73,-149.15,82.4,82.4,82.4,69.0,75.0,4.7
95,carthage,TN,36.86,10.33,80.6,80.6,80.6,44.0,0.0,5.82
96,ketchikan,US,55.34,-131.65,60.8,60.8,60.8,93.0,90.0,5.82
97,toshkivka,UA,48.78,38.58,57.52,57.52,57.52,84.0,0.0,5.84
98,tuktoyaktuk,CA,69.45,-133.04,48.2,48.2,48.2,100.0,90.0,6.93
99,san jeronimo,PE,-11.95,-75.28,46.45,46.45,46.45,60.0,1.0,1.1
100,tiksi,RU,71.69,128.87,48.54,48.54,48.54,73.0,41.0,9.01
101,hirara,JP,24.8,125.28,79.86,78.8,80.6,88.0,75.0,27.51
102,waingapu,ID,-9.66,120.26,82.67,82.67,82.67,50.0,9.0,10.07
103,yerbogachen,RU,61.28,108.01,74.43,74.43,74.43,42.0,0.0,8.77
104,snasa,NO,64.25,12.38,58.95,58.95,58.95,89.0,100.0,3.04
105,lopatyn,UA,50.22,24.85,54.77,54.77,54.77,81.0,81.0,5.73
106,port elizabeth,ZA,-33.92,25.57,51.8,51.8,51.8,66.0,0.0,5.82
107,flinders,AU,-34.58,150.86,69.01,69.01,69.01,42.0,100.0,5.01
108,codrington,AU,-38.27,141.97,52.18,52.18,52.18,68.0,98.0,15.61
109,nara,JP,34.69,135.8,91.56,89.6,95.0,59.0,75.0,3.36
110,kieta,PG,-6.22,155.63,86.25,86.25,86.25,62.0,6.0,6.29
111,carutapera,BR,-1.2,-46.02,74.93,74.93,74.93,93.0,9.0,5.57
112,diebougou,BF,10.97,-3.25,72.88,72.88,72.88,87.0,97.0,5.99
113,omboue,GA,-1.57,9.26,72.03,72.03,72.03,77.0,95.0,6.4
114,kaabong,UG,3.48,34.15,61.03,61.03,61.03,82.0,92.0,7.27
115,kapaa,US,22.08,-159.32,81.63,80.01,82.99,69.0,75.0,17.22
116,constitucion,CL,-35.33,-72.42,52.97,52.97,52.97,90.0,10.0,4.03
117,baglan,AF,36.13,68.71,86.31,86.31,86.31,18.0,0.0,2.17
118,okhotsk,RU,59.38,143.3,66.61,66.61,66.61,54.0,0.0,7.27
119,kandi,BJ,11.13,2.94,72.25,72.25,72.25,95.0,100.0,7.27
120,comodoro rivadavia,AR,-45.87,-67.5,53.6,53.6,53.6,50.0,100.0,8.05
121,koygorodok,RU,60.45,51.0,49.12,49.12,49.12,96.0,89.0,5.37
122,katsuura,JP,35.13,140.3,85.41,82.0,91.99,74.0,20.0,4.7
123,safaga,EG,26.73,33.94,84.2,84.2,84.2,17.0,6.0,6.93
124,sisimiut,GL,66.94,-53.67,47.71,47.71,47.71,74.0,41.0,9.42
125,winslow,US,35.02,-110.7,91.4,91.4,91.4,21.0,1.0,16.11
126,porto nacional,BR,-10.71,-48.42,77.0,77.0,77.0,53.0,0.0,3.36
127,geraldton,AU,-28.77,114.6,59.0,59.0,59.0,67.0,75.0,17.22
128,hermanus,ZA,-34.42,19.23,48.0,48.0,48.0,95.0,0.0,10.96
129,ambon,ID,-3.7,128.18,82.4,82.4,82.4,78.0,75.0,2.24
130,maraba,BR,-5.37,-49.12,79.0,79.0,79.0,58.0,77.0,1.77
131,marzuq,YE,14.4,46.47,78.75,78.75,78.75,61.0,99.0,0.38
132,coos bay,US,43.37,-124.22,64.56,62.01,70.0,82.0,1.0,5.82
133,serzedo,PT,41.41,-8.23,61.0,61.0,61.0,84.0,100.0,1.59
134,butaritari,KI,3.07,172.79,82.99,82.99,82.99,72.0,71.0,17.2
135,sydney,AU,-33.87,151.21,66.52,64.99,68.0,39.0,89.0,9.17
136,brcko,BA,44.87,18.81,58.37,55.0,63.0,100.0,0.0,2.24
137,zhangjiakou,CN,40.81,114.88,81.91,81.91,81.91,35.0,0.0,12.5
138,mahebourg,MU,-20.41,57.7,69.8,69.8,69.8,64.0,75.0,17.22
139,krasnyy oktyabr,RU,56.12,38.88,51.48,51.48,51.48,87.0,41.0,3.04
140,hobart,AU,-42.88,147.33,49.77,48.99,51.01,39.0,40.0,18.34
141,norman wells,CA,65.28,-126.83,78.8,78.8,78.8,50.0,40.0,1.23
142,onega,RU,63.91,38.14,51.19,51.19,51.19,89.0,86.0,4.5
143,kargasok,RU,59.06,80.86,73.8,73.8,73.8,63.0,19.0,5.23
144,sibolga,ID,1.74,98.78,83.82,83.82,83.82,66.0,100.0,1.63
145,isangel,VU,-19.55,169.27,77.0,77.0,77.0,57.0,40.0,9.17
146,chuy,UY,-33.7,-53.46,61.07,61.07,61.07,91.0,83.0,1.92
147,obzor,BG,42.82,27.88,64.83,62.01,68.0,88.0,0.0,10.29
148,camden,US,39.78,-74.97,82.78,80.01,84.99,81.0,72.0,1.01
149,steamboat springs,US,40.48,-106.83,72.03,60.8,82.4,28.0,1.0,5.82
150,copiapo,CL,-27.37,-70.33,53.6,53.6,53.6,87.0,0.0,2.24
151,naze,JP,28.37,129.48,89.6,89.6,89.6,70.0,20.0,10.29
152,chern,RU,53.45,36.91,50.02,50.02,50.02,90.0,3.0,4.32
153,faanui,PF,-16.48,-151.75,78.71,78.71,78.71,75.0,71.0,8.16
154,cap-aux-meules,CA,47.38,-61.86,71.6,71.6,71.6,73.0,20.0,9.17
155,laguna,US,38.42,-121.42,84.52,82.99,86.0,30.0,5.0,6.93
156,flin flon,CA,54.77,-101.86,64.56,64.56,64.56,55.0,0.0,6.22
157,altyn-topkan,TJ,40.65,69.6,78.8,78.8,78.8,36.0,0.0,4.47
158,erenhot,CN,43.65,111.98,74.08,74.08,74.08,43.0,0.0,15.23
159,makakilo city,US,21.35,-158.09,83.52,78.8,87.8,48.0,75.0,16.46
160,coquimbo,CL,-29.95,-71.34,51.8,51.8,51.8,93.0,0.0,3.36
161,pangody,RU,65.85,74.49,70.45,70.45,70.45,63.0,69.0,11.97
162,saint anthony,US,45.02,-93.22,63.7,60.01,66.2,59.0,90.0,4.7
163,bonnyville,CA,54.27,-110.73,77.0,77.0,77.0,50.0,20.0,12.75
164,lalibela,ET,12.03,39.03,58.1,58.1,58.1,90.0,100.0,2.73
165,hobyo,SO,5.35,48.53,78.53,78.53,78.53,71.0,99.0,19.35
166,cabedelo,BR,-6.98,-34.83,71.6,71.6,71.6,88.0,0.0,8.05
167,ribeira grande,PT,38.52,-28.7,71.6,71.6,71.6,83.0,0.0,7.85
168,stabat,ID,3.76,98.45,86.52,86.0,87.01,74.0,20.0,6.93
169,fernie,CA,49.5,-115.07,84.79,79.0,87.8,18.0,75.0,14.99
170,maniitsoq,GL,65.42,-52.9,47.68,47.68,47.68,80.0,62.0,4.16
171,castro,BR,-24.79,-50.01,49.62,49.62,49.62,94.0,0.0,4.09
172,oranjemund,NA,-28.55,16.43,61.14,61.14,61.14,42.0,0.0,3.38
173,kavieng,PG,-2.57,150.8,84.74,84.74,84.74,73.0,70.0,7.67
174,wesselsbron,ZA,-27.85,26.37,44.92,44.92,44.92,50.0,0.0,2.33
175,adrar,MR,20.5,-10.07,96.04,96.04,96.04,18.0,0.0,12.46
176,vestmanna,FO,62.16,-7.17,48.2,48.2,48.2,100.0,100.0,12.75
177,san policarpo,PH,12.18,125.51,84.74,84.74,84.74,76.0,100.0,5.41
178,karratha,AU,-20.74,116.85,78.42,78.42,78.42,33.0,62.0,8.48
179,georgetown,MY,5.41,100.34,87.4,87.01,87.8,62.0,20.0,11.41
180,san carlos de bariloche,AR,-41.15,-71.31,44.6,44.6,44.6,70.0,100.0,4.7
181,chumikan,RU,54.72,135.31,57.4,57.4,57.4,73.0,96.0,12.8
182,karauli,IN,26.5,77.02,89.83,89.83,89.83,61.0,3.0,13.49
183,aklavik,CA,68.22,-135.01,55.4,55.4,55.4,87.0,90.0,4.7
184,bodaybo,RU,57.85,114.19,70.75,70.75,70.75,53.0,11.0,10.07
185,wynyard,AU,-41.0,145.72,48.0,48.0,48.0,61.0,14.0,11.01
186,poya,NC,-21.35,165.15,71.74,71.74,71.74,62.0,21.0,10.22
187,carson city,US,39.16,-119.77,79.77,78.01,82.4,8.0,1.0,9.17
188,quchan,IR,37.11,58.51,72.7,72.7,72.7,22.0,0.0,3.65
189,najran,SA,17.49,44.13,82.4,82.4,82.4,48.0,40.0,9.17
190,behbahan,IR,30.6,50.24,86.7,86.0,87.8,74.0,0.0,3.31
191,imeni poliny osipenko,RU,52.42,136.49,59.34,59.34,59.34,76.0,100.0,7.92
192,cherskiy,RU,68.75,161.3,50.88,50.88,50.88,86.0,100.0,5.35
193,crystal beach,CA,42.87,-79.06,68.88,68.0,70.0,87.0,94.0,4.0
194,tura,IN,25.52,90.22,88.83,88.83,88.83,65.0,3.0,1.45
195,pangkalanbuun,ID,-2.68,111.62,70.25,70.25,70.25,94.0,100.0,4.23
196,kintinku,TZ,-5.88,35.23,59.0,59.0,59.0,82.0,5.0,1.95
197,leningradskiy,RU,69.38,178.42,41.27,41.27,41.27,83.0,100.0,9.22
198,atar,MR,20.52,-13.05,94.95,94.95,94.95,12.0,0.0,2.28
199,walvis bay,NA,-22.96,14.51,64.0,64.0,64.0,28.0,0.0,1.99
200,nanzhang,CN,31.78,111.84,91.85,91.85,91.85,65.0,3.0,4.27
201,aksu,CN,41.12,80.26,83.19,83.19,83.19,24.0,14.0,2.01
202,bilma,NE,18.69,12.92,89.55,89.55,89.55,35.0,34.0,7.14
203,mirnyy,RU,62.54,113.96,78.8,78.8,78.8,27.0,0.0,6.71
204,klaksvik,FO,62.23,-6.59,48.2,48.2,48.2,100.0,100.0,12.75
205,talnakh,RU,69.49,88.4,64.4,64.4,64.4,72.0,22.0,8.95
206,provideniya,RU,64.38,-173.3,53.6,53.6,53.6,58.0,75.0,8.95
207,hasaki,JP,35.73,140.83,89.01,84.2,91.99,66.0,40.0,5.82
208,karoi,ZW,-16.81,29.69,46.18,46.18,46.18,84.0,0.0,6.17
209,olinda,BR,-8.01,-34.86,77.0,77.0,77.0,69.0,40.0,12.75
210,den helder,NL,52.96,4.76,56.61,55.4,57.99,93.0,90.0,4.7
211,keti bandar,PK,24.14,67.45,87.35,87.35,87.35,74.0,38.0,14.72
212,cayenne,GF,4.93,-52.33,75.2,75.2,75.2,100.0,20.0,6.26
213,nome,US,64.5,-165.41,63.12,60.8,66.0,72.0,1.0,10.29
214,saint george,US,37.1,-113.58,98.15,95.0,100.4,8.0,1.0,11.41
215,faya,SA,18.39,42.45,66.2,66.2,66.2,77.0,40.0,3.69
216,salalah,OM,17.02,54.09,80.6,80.6,80.6,88.0,40.0,4.7
217,valera,VE,9.32,-70.6,74.01,74.01,74.01,68.0,95.0,6.2
218,umm lajj,SA,25.02,37.27,84.65,84.65,84.65,67.0,100.0,4.14
219,saldanha,ZA,-33.01,17.94,57.2,57.2,57.2,93.0,0.0,2.24
220,buala,SB,-8.14,159.59,86.0,86.0,86.0,67.0,20.0,6.73
221,osypenko,UA,46.91,36.83,60.01,60.01,60.01,100.0,0.0,8.01
222,eureka,US,40.8,-124.16,62.67,62.01,63.0,84.0,2.0,1.99
223,nalut,LY,30.33,10.85,78.96,78.96,78.96,22.0,0.0,12.64
224,coracao de jesus,BR,-16.69,-44.37,66.2,66.2,66.2,59.0,0.0,6.93
225,sonepur,IN,20.83,83.92,84.97,84.97,84.97,71.0,100.0,8.72
226,hambantota,LK,6.12,81.12,78.8,78.8,78.8,100.0,40.0,10.29
227,lagoa,PT,39.05,-27.98,71.24,71.24,71.24,75.0,1.0,2.08
228,longyearbyen,SJ,78.22,15.64,44.6,44.6,44.6,100.0,90.0,2.24
229,ust-nera,RU,64.57,143.2,71.19,71.19,71.19,28.0,16.0,2.59
230,progreso,MX,21.28,-89.67,82.4,82.4,82.4,78.0,75.0,6.93
231,trairi,BR,-3.28,-39.27,76.69,76.69,76.69,86.0,12.0,12.91
232,meulaboh,ID,4.14,96.13,78.85,78.85,78.85,83.0,100.0,2.35
233,darhan,MN,49.49,105.92,62.24,62.24,62.24,78.0,99.0,3.49
234,road town,VG,18.42,-64.62,81.66,81.0,82.0,86.0,0.0,7.0
235,kiama,AU,-34.68,150.87,68.11,66.99,69.01,42.0,100.0,5.01
236,bengkulu,ID,-3.8,102.27,82.92,82.92,82.92,72.0,43.0,0.83
237,luderitz,NA,-26.65,15.16,64.4,64.4,64.4,27.0,0.0,3.36
238,padang,ID,-0.95,100.35,83.61,83.61,83.61,60.0,96.0,2.64
239,fortuna,US,40.6,-124.16,64.33,63.0,66.0,80.0,1.0,1.01
240,perelyub,RU,51.87,50.37,65.61,65.61,65.61,65.0,100.0,4.34
241,arraial do cabo,BR,-22.97,-42.03,68.58,68.58,68.58,62.0,1.0,5.99
242,kerrville,US,30.05,-99.14,78.93,78.01,80.01,65.0,1.0,4.7
243,akdepe,TM,42.06,59.38,76.08,75.2,77.0,47.0,0.0,6.93
244,charters towers,AU,-20.1,146.27,74.71,74.71,74.71,39.0,0.0,5.48
245,burnie,AU,-41.07,145.92,48.0,48.0,48.0,61.0,13.0,11.01
246,san patricio,MX,19.22,-104.7,81.99,81.99,81.99,83.0,99.0,5.86
247,praya,CV,14.92,-23.51,80.6,80.6,80.6,74.0,20.0,4.7
248,bay roberts,CA,47.6,-53.26,57.9,57.0,59.0,1.0,0.0,5.03
249,vestmannaeyjar,IS,63.44,-20.27,49.89,49.89,49.89,89.0,24.0,17.85
250,almaznyy,RU,48.04,40.05,55.4,55.4,55.4,87.0,0.0,6.78
251,cedar city,US,37.68,-113.06,84.2,84.2,84.2,9.0,1.0,10.29
252,puri,IN,19.8,85.85,84.2,84.2,84.2,89.0,75.0,8.05
253,mahanoro,MG,-19.9,48.8,64.74,64.74,64.74,80.0,58.0,8.16
254,dingle,PH,11.0,122.67,87.01,87.01,87.01,69.0,99.0,6.73
255,manyana,BW,-23.4,21.72,46.76,46.76,46.76,52.0,0.0,8.21
256,guymon,US,36.68,-101.48,78.8,78.8,78.8,54.0,1.0,11.41
257,gat,IL,31.61,34.76,67.91,62.01,72.0,59.0,0.0,4.0
258,egvekinot,RU,66.32,-179.17,47.26,47.26,47.26,64.0,80.0,1.48
259,nawabganj,BD,24.59,88.27,92.07,92.07,92.07,61.0,88.0,1.45
260,suntar,RU,62.14,117.63,77.38,77.38,77.38,38.0,0.0,6.91
261,souillac,MU,-20.52,57.52,69.8,69.8,69.8,64.0,75.0,17.22
262,placido de castro,BR,-10.34,-67.19,74.53,74.53,74.53,54.0,0.0,1.01
263,camargo,MX,27.67,-105.17,82.11,82.11,82.11,32.0,33.0,5.12
264,hastings,GB,50.86,0.57,57.69,57.0,57.99,91.0,99.0,1.01
265,barguzin,RU,53.62,109.62,62.67,62.67,62.67,83.0,97.0,6.02
266,srednekolymsk,RU,67.45,153.68,65.3,65.3,65.3,43.0,54.0,4.61
267,coihaique,CL,-45.58,-72.07,37.4,37.4,37.4,93.0,99.0,5.82
268,leshukonskoye,RU,64.9,45.76,50.07,50.07,50.07,93.0,100.0,8.3
269,chapais,CA,49.78,-74.85,64.4,64.4,64.4,93.0,90.0,4.7
270,alice springs,AU,-23.7,133.88,75.88,75.0,77.0,12.0,0.0,11.41
271,estevan,CA,49.13,-102.98,65.44,62.6,68.0,60.0,1.0,8.05
272,necochea,AR,-38.55,-58.74,46.24,46.24,46.24,83.0,95.0,3.22
273,tazovskiy,RU,67.47,78.7,61.9,61.9,61.9,74.0,32.0,10.42
274,pochutla,MX,15.74,-96.47,80.01,80.01,80.01,85.0,3.0,3.6
275,kalemie,CD,-5.95,29.19,69.67,69.67,69.67,67.0,47.0,7.92
276,teahupoo,PF,-17.83,-149.27,80.6,80.6,80.6,69.0,40.0,6.93
277,tzaneen,ZA,-23.83,30.16,50.0,50.0,50.0,53.0,0.0,6.93
278,goderich,CA,43.75,-81.72,65.39,63.0,68.0,91.0,58.0,10.56
279,langsa,ID,4.47,97.97,86.65,86.65,86.65,61.0,98.0,4.59
280,los llanos de aridane,ES,28.66,-17.92,76.73,71.6,80.01,88.0,6.0,17.22
281,brae,GB,60.4,-1.35,53.6,53.6,53.6,87.0,100.0,12.75
282,qasigiannguit,GL,68.82,-51.19,42.8,42.8,42.8,81.0,0.0,2.24
283,batagay,RU,67.63,134.63,67.64,67.64,67.64,38.0,98.0,6.02
284,olavarria,AR,-36.89,-60.32,51.01,51.01,51.01,69.0,100.0,1.01
285,high prairie,CA,55.43,-116.49,67.03,67.03,67.03,75.0,79.0,10.45
286,wakkanai,JP,45.41,141.67,75.2,75.2,75.2,78.0,75.0,6.93
287,ostrovnoy,RU,68.05,39.51,49.86,49.86,49.86,84.0,100.0,14.25
288,krasnyy chikoy,RU,50.36,108.75,59.13,59.13,59.13,89.0,100.0,3.53
289,dwarka,IN,22.24,68.97,86.41,86.41,86.41,76.0,11.0,9.42
290,waipawa,NZ,-41.41,175.52,56.34,55.99,57.2,71.0,91.0,13.87
291,sao filipe,CV,14.9,-24.5,78.57,78.57,78.57,85.0,20.0,9.44
292,rocha,UY,-34.48,-54.33,58.35,58.35,58.35,96.0,100.0,3.18
293,mandurah,AU,-32.55,115.7,53.01,53.01,53.01,90.0,41.0,3.13
294,minab,IR,27.15,57.08,89.6,89.6,89.6,75.0,20.0,11.41
295,sungairaya,ID,0.7,108.9,82.96,82.96,82.96,75.0,100.0,8.9
296,fort nelson,CA,58.81,-122.7,78.8,78.8,78.8,50.0,75.0,4.7
297,saint-joseph,RE,-21.37,55.62,68.0,68.0,68.0,64.0,90.0,11.41
298,digha,IN,21.68,87.55,90.82,90.82,90.82,67.0,100.0,5.95
299,hami,CN,42.8,93.45,93.34,93.34,93.34,10.0,100.0,7.36
300,mayo,US,38.89,-76.51,81.9,79.0,84.99,70.0,1.0,5.82
301,mount isa,AU,-20.73,139.5,82.4,82.4,82.4,20.0,0.0,11.41
302,magadi,IN,12.97,77.23,72.61,69.8,75.99,100.0,90.0,10.29
303,labuhan,ID,-6.88,112.21,82.42,82.42,82.42,62.0,44.0,3.85
304,matamoros,MX,25.53,-103.25,84.49,82.99,86.0,27.0,40.0,5.82
305,narsaq,GL,60.92,-46.05,48.2,48.2,48.2,76.0,77.0,3.36
306,liverpool,GB,53.41,-2.98,56.21,55.0,57.2,82.0,63.0,9.17
307,sale,MA,34.04,-6.82,69.31,68.0,71.01,94.0,0.0,6.93
308,illapel,CL,-31.63,-71.17,55.67,55.67,55.67,52.0,0.0,1.28
309,garwolin,PL,51.9,21.61,63.79,62.01,64.99,68.0,80.0,6.93
310,virginia beach,US,36.85,-75.98,81.86,80.01,84.0,74.0,1.0,13.87
311,booue,GA,-0.09,11.94,72.3,72.3,72.3,79.0,98.0,4.41
312,batagay-alyta,RU,67.8,130.41,61.77,61.77,61.77,50.0,100.0,3.85
313,lompoc,US,34.64,-120.46,57.65,55.4,59.0,87.0,0.0,11.41
314,college,US,64.86,-147.8,62.76,61.0,64.99,59.0,75.0,8.05
315,saint-pierre,RE,-21.34,55.48,68.0,68.0,68.0,64.0,90.0,11.41
316,monster,NL,52.03,4.17,61.05,59.0,62.01,88.0,100.0,8.14
317,nyimba,ZM,-14.56,30.81,55.44,55.44,55.44,83.0,12.0,3.53
318,moussoro,TD,13.64,16.49,77.02,77.02,77.02,81.0,100.0,18.59
319,kahului,US,20.89,-156.47,79.34,75.0,87.8,48.0,20.0,24.16
320,the valley,AI,18.22,-63.06,83.05,82.0,84.2,83.0,40.0,8.05
321,nikolskoye,RU,59.7,30.79,57.29,55.99,59.0,87.0,90.0,2.24
322,tual,ID,-5.67,132.75,77.7,77.7,77.7,82.0,72.0,18.43
323,lago da pedra,BR,-4.33,-45.17,74.86,74.86,74.86,70.0,0.0,1.23
324,igarka,RU,67.47,86.58,62.26,62.26,62.26,77.0,71.0,1.63
325,maceio,BR,-9.67,-35.74,69.8,69.8,69.8,100.0,75.0,4.7
326,blackwater,AU,-23.58,148.88,67.08,67.08,67.08,52.0,46.0,9.6
327,nautla,MX,20.22,-96.78,80.22,80.22,80.22,75.0,87.0,3.58
328,seymchan,RU,62.88,152.43,67.96,67.96,67.96,37.0,43.0,6.2
329,evanston,US,42.04,-87.69,68.88,68.0,69.8,83.0,75.0,3.36
330,punta alta,AR,-38.88,-62.07,47.86,47.86,47.86,56.0,28.0,10.71
331,dudinka,RU,69.41,86.18,64.4,64.4,64.4,72.0,69.0,8.95
332,mlawa,PL,53.11,20.38,54.48,50.0,59.0,100.0,73.0,1.12
333,pangnirtung,CA,66.15,-65.71,50.02,50.02,50.02,71.0,69.0,1.74
334,imbituba,BR,-28.24,-48.67,64.4,64.4,64.4,93.0,33.0,11.41
335,banjar,ID,-8.19,114.97,77.0,77.0,77.0,100.0,75.0,5.82
336,kiunga,PG,-6.12,141.29,86.56,86.56,86.56,57.0,45.0,3.71
337,graaff-reinet,ZA,-32.25,24.53,62.01,62.01,62.01,25.0,0.0,12.88
338,guerrero negro,MX,27.98,-114.06,73.29,73.29,73.29,72.0,49.0,16.08
339,sorland,NO,67.67,12.69,60.94,60.94,60.94,76.0,4.0,11.95
340,te anau,NZ,-45.42,167.72,52.83,52.83,52.83,76.0,100.0,0.98
341,honiara,SB,-9.43,159.95,87.8,87.8,87.8,70.0,20.0,6.93
342,kontagora,NG,10.4,5.47,71.1,71.1,71.1,97.0,100.0,6.58
343,avera,US,33.19,-82.53,80.73,75.99,84.2,69.0,1.0,8.05
344,yar-sale,RU,66.83,70.83,63.36,63.36,63.36,81.0,100.0,19.24
345,mitsamiouli,KM,-11.38,43.28,76.64,76.64,76.64,71.0,0.0,14.63
346,whitehorse,CA,60.72,-135.05,63.46,61.0,64.4,52.0,75.0,3.36
347,palana,RU,59.12,159.97,56.28,56.28,56.28,65.0,4.0,11.07
348,tilichiki,RU,60.47,166.1,60.55,60.55,60.55,59.0,46.0,8.57
349,el rusio,HN,14.47,-86.37,70.48,70.48,70.48,98.0,100.0,2.59
350,treinta y tres,UY,-33.23,-54.38,62.51,62.51,62.51,89.0,43.0,2.95
351,auki,SB,-8.77,160.7,87.28,87.28,87.28,62.0,7.0,2.3
352,taveta,KE,-3.4,37.67,59.0,59.0,59.0,87.0,75.0,5.95
353,hailar,CN,49.2,119.7,73.22,73.22,73.22,64.0,100.0,6.31
354,broken hill,AU,-31.95,141.43,68.0,68.0,68.0,24.0,100.0,10.29
355,jacmel,HT,18.23,-72.53,78.8,78.8,78.8,94.0,100.0,2.24
356,phonhong,LA,18.5,102.42,80.6,80.6,80.6,94.0,75.0,6.93
357,portoferraio,IT,42.81,10.31,77.67,75.99,79.0,67.0,0.0,11.72
358,yulara,AU,-25.24,130.99,71.6,71.6,71.6,10.0,0.0,5.82
359,cidreira,BR,-30.18,-50.21,61.79,61.79,61.79,79.0,16.0,5.1
360,rudbar,AF,30.15,62.6,85.06,85.06,85.06,15.0,0.0,12.68
361,agadez,NE,19.75,10.25,88.7,88.7,88.7,33.0,96.0,10.71
362,ughelli,NG,5.49,6.01,72.32,72.32,72.32,92.0,100.0,3.29
363,westport,US,41.14,-73.36,79.93,79.0,81.0,78.0,1.0,13.87
364,sola,VU,-13.88,167.55,75.51,75.51,75.51,86.0,86.0,19.62
365,altay,CN,47.87,88.12,77.32,77.32,77.32,23.0,7.0,0.92
366,zhob,PK,31.34,69.45,85.69,85.69,85.69,17.0,0.0,6.93
367,ati,TD,13.22,18.34,74.84,74.84,74.84,84.0,100.0,15.57
368,kualakapuas,ID,-3.01,114.39,84.2,84.2,84.2,74.0,20.0,6.93
369,kaitangata,NZ,-46.28,169.85,51.01,51.01,51.01,74.0,41.0,1.99
370,jakar,BT,27.55,90.75,73.56,73.56,73.56,49.0,74.0,2.8
371,ericeira,PT,38.96,-9.42,64.67,64.0,64.99,94.0,65.0,24.83
372,acajutla,SV,13.59,-89.83,75.99,75.99,75.99,90.0,100.0,4.74
373,richards bay,ZA,-28.78,32.04,62.49,62.49,62.49,76.0,0.0,15.59
374,golpayegan,IR,33.45,50.29,70.97,70.97,70.97,28.0,0.0,1.86
375,huarmey,PE,-10.07,-78.15,60.15,60.15,60.15,86.0,50.0,8.59
376,sierpc,PL,52.86,19.67,62.19,62.19,62.19,69.0,99.0,5.91
377,yinchuan,CN,38.47,106.27,89.13,89.13,89.13,12.0,14.0,8.32
378,holiday,US,28.19,-82.74,81.28,80.01,82.99,69.0,94.0,14.0
379,paipa,CO,5.78,-73.12,49.95,49.95,49.95,84.0,2.0,3.33
380,margate,GB,51.38,1.39,60.39,60.01,61.0,78.0,99.0,1.99
381,blagoyevo,RU,63.37,47.92,51.69,51.69,51.69,92.0,99.0,7.27
382,port augusta,AU,-32.5,137.77,65.91,57.2,69.01,82.0,90.0,12.75
383,pingzhuang,CN,42.04,119.29,89.04,89.04,89.04,25.0,0.0,19.53
384,harper,LR,4.38,-7.72,71.92,71.92,71.92,80.0,94.0,3.6
385,rong kwang,TH,18.34,100.32,77.0,77.0,77.0,94.0,75.0,6.93
386,nedjo,ET,9.5,35.5,57.06,57.06,57.06,94.0,83.0,1.74
387,sinnamary,GF,5.38,-52.95,77.9,77.9,77.9,85.0,95.0,8.48
388,batticaloa,LK,7.71,81.69,85.55,85.55,85.55,61.0,100.0,13.13
389,portland,US,45.52,-122.68,77.45,73.99,81.0,57.0,73.0,1.01
390,henderson,US,36.04,-114.98,100.0,96.8,104.0,4.0,1.0,4.7
391,ponta delgada,PT,37.73,-25.67,71.6,71.6,71.6,73.0,20.0,5.82
392,lodingen,NO,68.41,16.0,58.41,55.99,60.8,63.0,0.0,13.87
393,kabalo,CD,-6.05,26.92,65.52,65.52,65.52,40.0,99.0,4.5
394,havre-saint-pierre,CA,50.23,-63.6,62.6,62.6,62.6,88.0,75.0,3.36
395,muana,BR,-1.53,-49.22,74.8,74.8,74.8,91.0,19.0,3.22
396,limay,PH,14.53,120.55,88.38,86.0,91.0,66.0,75.0,2.24
397,bathsheba,BB,13.22,-59.52,82.4,82.4,82.4,78.0,75.0,12.75
398,edd,ER,13.93,41.69,84.2,84.2,84.2,74.0,100.0,7.85
399,birjand,IR,32.87,59.22,69.8,69.8,69.8,22.0,0.0,6.93
400,airai,TL,-8.93,125.41,72.84,72.84,72.84,52.0,28.0,3.58
401,palma di montechiaro,IT,37.19,13.77,77.0,77.0,77.0,51.0,0.0,1.52
402,savona,IT,44.3,8.27,71.58,61.0,78.01,98.0,54.0,6.49
403,sept-iles,CA,50.2,-66.38,64.74,64.4,64.99,88.0,90.0,6.93
404,busia,UG,0.45,34.08,64.38,64.38,64.38,78.0,64.0,5.08
405,inta,RU,66.03,60.17,62.15,62.15,62.15,85.0,38.0,8.79
406,aubenas,FR,44.62,4.39,71.24,71.01,71.6,64.0,83.0,12.75
407,tuatapere,NZ,-46.13,167.68,55.78,55.78,55.78,64.0,99.0,2.86
408,porto novo,BJ,6.5,2.6,74.1,74.1,74.1,82.0,57.0,8.88
409,aguimes,ES,27.91,-15.45,76.21,73.0,78.8,44.0,0.0,27.51
410,tommot,RU,58.96,126.29,69.94,69.94,69.94,53.0,98.0,8.32
411,khor,RU,47.89,134.95,62.69,62.69,62.69,96.0,100.0,13.56
412,salinopolis,BR,-0.61,-47.36,78.87,78.87,78.87,86.0,9.0,11.25
413,tezu,IN,27.92,96.17,90.9,90.9,90.9,56.0,0.0,3.47
414,thinadhoo,MV,0.53,72.93,83.25,83.25,83.25,76.0,100.0,12.15
415,saint-georges,GD,12.06,-61.75,82.4,82.4,82.4,88.0,40.0,11.5
416,cotusca,RO,48.13,26.85,55.0,55.0,55.0,77.0,90.0,4.7
417,loa janan,ID,-0.58,117.09,80.31,80.31,80.31,89.0,62.0,4.56
418,sambava,MG,-14.27,50.17,71.19,71.19,71.19,82.0,100.0,18.81
419,tikrit,IQ,34.61,43.68,86.4,86.4,86.4,16.0,0.0,10.16
420,sukhumi,GE,43.0,41.02,64.2,64.2,64.2,79.0,0.0,6.22
421,jiayuguan,CN,39.82,98.3,78.75,78.75,78.75,16.0,0.0,15.37
422,camana,PE,-16.62,-72.71,58.68,58.68,58.68,79.0,52.0,7.25
423,mumbwa,ZM,-14.98,27.06,48.76,48.76,48.76,63.0,37.0,6.35
424,palmer,US,42.16,-72.33,77.58,75.0,79.0,83.0,90.0,3.36
425,fairbanks,US,64.84,-147.72,63.07,61.0,64.99,59.0,75.0,8.05
426,barhi,IN,23.9,80.8,85.86,85.86,85.86,71.0,40.0,9.31
427,saint-francois,FR,46.42,3.91,61.39,60.01,62.6,72.0,100.0,5.82
428,badarganj,BD,25.67,89.05,91.72,91.72,91.72,61.0,30.0,4.07
429,quixada,BR,-4.97,-39.02,76.1,76.1,76.1,79.0,96.0,2.71
430,krasnoselkup,RU,65.7,82.47,69.06,69.06,69.06,59.0,55.0,6.29
431,asau,RO,46.43,26.4,51.01,51.01,51.01,91.0,50.0,2.57
432,hithadhoo,MV,-0.6,73.08,83.68,83.68,83.68,73.0,100.0,10.67
433,juan aldama,MX,24.29,-103.39,65.66,65.66,65.66,54.0,6.0,11.7
434,vardo,NO,70.37,31.11,50.0,50.0,50.0,87.0,75.0,10.29
435,opuwo,NA,-18.06,13.84,55.78,55.78,55.78,36.0,0.0,9.19
436,mingoyo,TZ,-10.1,39.63,66.67,66.67,66.67,90.0,1.0,4.09
437,alyangula,AU,-13.85,136.42,84.2,84.2,84.2,32.0,90.0,8.05
438,sabha,LY,27.04,14.43,79.88,79.88,79.88,22.0,0.0,9.42
439,ulaanbaatar,MN,47.91,106.88,60.8,60.8,60.8,72.0,75.0,11.18
440,devonport,AU,-41.17,146.35,50.04,48.0,52.0,63.0,30.0,4.0
441,mehamn,NO,71.04,27.85,48.2,48.2,48.2,93.0,90.0,8.05
442,taltal,CL,-25.4,-70.48,56.82,56.82,56.82,72.0,38.0,1.57
443,paducah,US,37.08,-88.6,70.23,68.0,71.6,94.0,1.0,3.33
444,tonantins,BR,-2.87,-67.8,74.43,74.43,74.43,68.0,34.0,2.28
445,vila,PT,42.03,-8.16,60.21,57.99,62.01,87.0,100.0,4.7
446,glace bay,CA,46.2,-59.96,65.28,63.0,68.0,88.0,40.0,8.05
447,chabahar,IR,25.29,60.64,83.89,83.89,83.89,80.0,11.0,5.77
448,port-cartier,CA,50.03,-66.87,64.71,64.4,64.99,88.0,90.0,6.93
449,alofi,NU,-19.06,-169.92,77.0,77.0,77.0,78.0,100.0,9.17
450,piopio,NZ,-38.47,175.02,60.17,60.17,60.17,48.0,10.0,2.93
451,iqaluit,CA,63.75,-68.51,53.6,53.6,53.6,66.0,20.0,8.05
452,emba,KZ,48.83,58.14,85.55,85.55,85.55,19.0,0.0,2.33
453,calvinia,ZA,-31.47,19.78,53.73,53.73,53.73,37.0,0.0,5.17
454,middle island,US,40.88,-72.94,80.17,79.0,81.0,83.0,1.0,10.29
455,santiago de cuba,CU,20.02,-75.82,77.0,77.0,77.0,100.0,40.0,4.7
456,butajira,ET,8.12,38.37,57.54,57.54,57.54,83.0,98.0,3.94
457,severodvinsk,RU,64.56,39.83,53.6,53.6,53.6,87.0,75.0,7.2
458,corinto,GR,37.94,22.96,73.99,73.99,73.99,48.0,0.0,1.01
459,teguldet,RU,57.31,88.17,73.15,73.15,73.15,50.0,20.0,4.38
460,saskylakh,RU,71.92,114.08,73.9,73.9,73.9,49.0,12.0,4.61
461,zhicheng,CN,30.3,111.5,97.0,97.0,97.0,57.0,98.0,3.0
462,taunggyi,MM,20.78,97.03,73.06,73.06,73.06,94.0,100.0,3.42
463,pozo colorado,PY,-23.49,-58.8,74.05,74.05,74.05,46.0,27.0,6.73
464,sakakah,SA,29.97,40.21,84.2,84.2,84.2,25.0,0.0,11.41
465,almeirim,BR,-1.52,-52.58,76.95,76.95,76.95,73.0,41.0,1.99
466,chicama,PE,-7.84,-79.15,60.78,60.78,60.78,85.0,47.0,5.26
467,boguchany,RU,58.38,97.45,77.36,77.36,77.36,45.0,13.0,5.39
468,rundu,NA,-17.93,19.77,47.19,47.19,47.19,52.0,0.0,4.79
469,grindavik,IS,63.84,-22.43,48.2,48.2,48.2,87.0,90.0,10.29
470,mumford,GH,5.26,-0.76,72.66,72.66,72.66,86.0,96.0,10.85
471,nowy targ,PL,49.48,20.03,53.87,53.01,55.0,93.0,97.0,3.36
472,nuqui,CO,5.71,-77.27,79.74,79.74,79.74,86.0,100.0,3.96
473,kysyl-syr,RU,63.9,122.76,75.02,75.02,75.02,34.0,2.0,4.32
474,guozhen,CN,34.37,107.36,87.78,87.78,87.78,57.0,59.0,5.7
475,anicuns,BR,-16.46,-49.96,62.29,62.29,62.29,56.0,0.0,5.39
476,tamisan,PH,6.84,126.3,76.23,76.23,76.23,89.0,100.0,7.05
477,kushiro,JP,42.98,144.37,68.0,68.0,68.0,94.0,75.0,9.17
478,knyaze-volkonskoye,RU,48.46,135.46,59.0,59.0,59.0,93.0,90.0,11.18
479,turukhansk,RU,65.82,87.98,65.39,65.39,65.39,76.0,43.0,2.98
480,cap malheureux,MU,-19.98,57.61,69.01,69.01,69.01,70.0,23.0,8.01
481,igurubi,TZ,-4.0,33.7,58.46,58.46,58.46,71.0,0.0,10.42
482,jacksonville,US,30.33,-81.66,81.93,80.01,82.99,83.0,90.0,10.29
483,chilca,PE,-12.52,-76.74,59.0,59.0,59.0,82.0,90.0,11.41
484,koshki,RU,54.21,50.47,59.27,59.27,59.27,84.0,0.0,1.19
485,zamora,EC,-4.07,-78.96,65.52,65.52,65.52,73.0,59.0,1.1
486,hyeres,FR,43.12,6.12,74.5,72.0,77.0,53.0,75.0,6.93
487,pevek,RU,69.7,170.31,38.14,38.14,38.14,92.0,100.0,1.23
488,outjo,NA,-20.12,16.15,51.04,51.04,51.04,41.0,0.0,8.95
489,bandarbeyla,SO,9.49,50.81,80.8,80.8,80.8,56.0,6.0,27.31
490,bousso,TD,10.48,16.71,71.55,71.55,71.55,97.0,100.0,1.88
491,tabuk,PH,17.42,121.44,87.44,87.44,87.44,64.0,99.0,5.5
492,whyalla,AU,-33.03,137.58,57.2,57.2,57.2,82.0,90.0,12.75
493,sal rei,CV,16.18,-22.92,78.8,78.8,78.8,88.0,40.0,12.75
494,mbala,ZM,-8.84,31.37,52.03,52.03,52.03,80.0,86.0,10.49
495,trapani,IT,37.83,12.67,75.06,73.99,75.99,83.0,40.0,4.7
496,betioky,MG,-23.72,44.38,53.82,53.82,53.82,81.0,0.0,6.38
497,kaeo,NZ,-35.1,173.78,62.01,62.01,62.01,3.0,53.0,8.99
498,fonte boa,BR,-2.5,-66.27,74.77,74.77,74.77,68.0,7.0,0.51
499,sao miguel do tapuio,BR,-5.5,-41.32,73.76,73.76,73.76,63.0,0.0,5.75
500,port-gentil,GA,-0.72,8.78,74.14,74.14,74.14,78.0,100.0,12.39
501,paragominas,BR,-2.97,-47.48,72.95,72.95,72.95,80.0,74.0,3.4
502,escanaba,US,45.75,-87.06,57.42,57.0,57.99,82.0,90.0,9.17
503,singkang,MY,2.1,102.8,82.2,82.0,82.4,83.0,20.0,2.24
504,roma,US,43.21,-75.46,78.6,75.0,82.4,45.0,1.0,6.93
505,orthez,FR,43.49,-0.77,61.41,57.99,66.0,93.0,75.0,2.24
506,namibe,AO,-15.2,12.15,67.37,67.37,67.37,69.0,0.0,7.31
507,ust-kuyga,RU,70.02,135.6,53.49,53.49,53.49,61.0,100.0,10.07
508,pisco,PE,-13.7,-76.22,60.01,59.0,60.8,77.0,0.0,3.36
509,lima,PE,-12.04,-77.03,59.0,59.0,59.0,82.0,90.0,11.41
510,north bend,US,43.41,-124.22,65.8,62.6,70.0,82.0,1.0,5.82
511,itupiranga,BR,-5.13,-49.33,78.04,78.04,78.04,64.0,63.0,0.83
512,vila velha,BR,-20.33,-40.29,67.17,66.2,68.0,77.0,40.0,5.82
513,barranca,PE,-10.75,-77.77,58.89,58.89,58.89,87.0,63.0,7.49
514,spalene porici,CZ,49.61,13.61,60.28,55.99,63.0,93.0,90.0,1.12
515,belgrade,RS,44.8,20.47,62.74,60.8,64.4,72.0,0.0,4.7
516,daru,PG,-9.08,143.21,77.99,77.99,77.99,78.0,95.0,14.32
517,paamiut,GL,61.99,-49.67,44.62,44.62,44.62,96.0,100.0,4.54
518,mokrous,RU,51.23,47.52,65.12,65.12,65.12,60.0,41.0,1.52
519,berlevag,NO,70.86,29.09,48.27,48.27,48.27,91.0,100.0,10.49
520,lodja,CD,-3.48,23.43,71.65,71.65,71.65,69.0,82.0,1.1
521,pacific grove,US,36.62,-121.92,61.18,57.99,66.2,68.0,1.0,9.17
522,uravakonda,IN,14.95,77.27,75.54,75.54,75.54,80.0,100.0,15.43
523,pahrump,US,36.21,-115.98,94.01,91.99,96.01,9.0,0.0,4.34
524,tobolsk,RU,58.2,68.27,75.74,75.74,75.74,62.0,0.0,9.19
525,dunedin,NZ,-45.87,170.5,51.73,48.99,54.0,80.0,66.0,1.01
526,kuusamo,FI,65.97,29.18,51.8,51.8,51.8,87.0,14.0,4.7
527,thunder bay,CA,48.4,-89.32,60.42,60.01,60.8,63.0,75.0,5.82
528,clarence town,AU,-32.58,151.78,66.4,66.0,66.99,48.0,97.0,12.75
529,dmitriyevka,RU,54.75,55.33,59.0,59.0,59.0,100.0,40.0,6.71
530,gombong,ID,-7.61,109.51,81.84,81.84,81.84,62.0,91.0,3.44
531,samdrup jongkhar,BT,26.92,91.62,84.47,84.47,84.47,64.0,1.0,3.51
532,husavik,IS,66.04,-17.34,50.0,50.0,50.0,93.0,90.0,4.7
533,ler,SS,8.3,30.14,71.46,71.46,71.46,92.0,70.0,1.45
534,alingsas,SE,57.93,12.53,54.23,53.6,55.0,87.0,75.0,11.41
535,nueva helvecia,UY,-34.3,-57.23,58.68,58.68,58.68,98.0,56.0,8.03
536,cockburn town,TC,21.46,-71.14,82.67,82.67,82.67,83.0,0.0,15.95
537,payson,US,40.04,-111.73,86.9,84.0,89.01,29.0,40.0,5.82
538,vila franca do campo,PT,37.72,-25.43,71.6,71.6,71.6,73.0,20.0,5.82
539,chifeng,CN,42.27,118.96,86.52,86.52,86.52,28.0,0.0,21.25
540,bambanglipuro,ID,-7.95,110.28,79.66,79.66,79.66,67.0,90.0,6.06
541,ribeira brava,PT,32.65,-17.07,65.53,62.01,69.8,73.0,20.0,13.87
542,balabac,PH,7.99,117.06,86.38,86.38,86.38,65.0,100.0,7.2
543,darfield,GB,53.53,-1.38,54.95,54.0,55.99,86.0,37.0,4.32
544,krasnoarmeysk,RU,51.02,45.7,62.01,62.01,62.01,80.0,0.0,6.31
545,sao felix do xingu,BR,-6.64,-51.99,73.17,73.17,73.17,54.0,5.0,1.28
546,melo,UY,-32.37,-54.18,64.56,64.56,64.56,90.0,56.0,5.44
547,prokuplje,RS,43.23,21.59,59.0,59.0,59.0,87.0,0.0,3.36
548,inuvik,CA,68.35,-133.72,55.4,55.4,55.4,87.0,90.0,4.7
549,namatanai,PG,-3.67,152.43,84.22,84.22,84.22,74.0,53.0,9.31
550,mareeba,AU,-17.0,145.43,73.22,72.0,75.2,60.0,90.0,17.22
551,barra patuca,HN,15.8,-84.28,80.98,80.98,80.98,80.0,100.0,4.5
552,west wendover,US,40.74,-114.07,89.6,89.6,89.6,14.0,1.0,5.57
